{
    "data": [
    {
        "id": 781682,
        "province_name": "Farwaniya",
        "province_ar_name": "الفروانيه",
        "price": 3.0,
        "name": "Abbasiya",
        "ar_name": "عباسية",
        "lat": "29.257",
        "lng": "47.935",
        "country": 2486,
        "province": 30015
    },
    {
        "id": 781670,
        "province_name": "Kuwait City",
        "province_ar_name": "العاصمة",
        "price": 3.0,
        "name": "Abdulla Al-Salem",
        "ar_name": "ضاحية عبدالله السالم",
        "lat": "29.351859",
        "lng": "47.983692",
        "country": 2486,
        "province": 30018
    },
    {
        "id": 781671,
        "province_name": "Farwaniya",
        "province_ar_name": "الفروانيه",
        "price": 3.0,
        "name": "Abdullah Al-Mubarak",
        "ar_name": "ضاحية عبدالله المبارك",
        "lat": "29.2437196",
        "lng": "47.8859711",
        "country": 2486,
        "province": 30015
    },
    {
        "id": 781562,
        "province_name": "Mubarak Al-Kabeer",
        "province_ar_name": "مبارك الكبير",
        "price": 3.0,
        "name": "Abu Fatira",
        "ar_name": "ابو فطيرة",
        "lat": "29.1973719999999",
        "lng": "48.102684",
        "country": 2486,
        "province": 30014
    },
    {
        "id": 781561,
        "province_name": "Ahmadi",
        "province_ar_name": "الأحمدي",
        "price": 3.0,
        "name": "Abu Halifa",
        "ar_name": "ابو حليفة",
        "lat": "29.127176",
        "lng": "48.1250239999999",
        "country": 2486,
        "province": 30013
    },
    {
        "id": 781568,
        "province_name": "Mubarak Al-Kabeer",
        "province_ar_name": "مبارك الكبير",
        "price": 3.0,
        "name": "Abu Hasaniya",
        "ar_name": "أبو الحصانية",
        "lat": "29.190906",
        "lng": "48.113853",
        "country": 2486,
        "province": 30014
    },
    {
        "id": 781685,
        "province_name": "Kuwait City",
        "province_ar_name": "العاصمة",
        "price": 3.0,
        "name": "Adailiya",
        "ar_name": "العديلية",
        "lat": "29.328058",
        "lng": "47.983692",
        "country": 2486,
        "province": 30018
    },
    {
        "id": 781722,
        "province_name": "Mubarak Al-Kabeer",
        "province_ar_name": "مبارك الكبير",
        "price": 3.0,
        "name": "Airport",
        "ar_name": "المطار",
        "lat": "29.215584",
        "lng": "47.971258",
        "country": 2486,
        "province": 30014
    },
    {
        "id": 781573,
        "province_name": "Hawalli",
        "province_ar_name": "حولي",
        "price": 3.0,
        "name": "Al Bida'a",
        "ar_name": "البدع",
        "lat": "29.31928",
        "lng": "48.089659",
        "country": 2486,
        "province": 30016
    },
    {
        "id": 781676,
        "province_name": "Ahmadi",
        "province_ar_name": "الأحمدي",
        "price": 3.0,
        "name": "Al Daher",
        "ar_name": "الظهر",
        "lat": "29.161",
        "lng": "48.068",
        "country": 2486,
        "province": 30013
    },
    {
        "id": 781665,
        "province_name": "Jahra",
        "province_ar_name": "الجهراء",
        "price": 3.0,
        "name": "Al Sulaibiya Industrial 1",
        "ar_name": "الصليبية الصناعية 1",
        "lat": "29.288542",
        "lng": "47.840313",
        "country": 2486,
        "province": 30017
    },
    {
        "id": 781666,
        "province_name": "Jahra",
        "province_ar_name": "الجهراء",
        "price": 3.0,
        "name": "Al Sulaibiya Industrial 2",
        "ar_name": "الصليبية الصناعية 2",
        "lat": "29.278295",
        "lng": "47.853353",
        "country": 2486,
        "province": 30017
    },
    {
        "id": 781684,
        "province_name": "Mubarak Al-Kabeer",
        "province_ar_name": "مبارك الكبير",
        "price": 3.0,
        "name": "Al-Adan",
        "ar_name": "العدان",
        "lat": "29.22844",
        "lng": "48.065471",
        "country": 2486,
        "province": 30014
    },
    {
        "id": 781564,
        "province_name": "Ahmadi",
        "province_ar_name": "الأحمدي",
        "price": 3.0,
        "name": "Al-Ahmadi",
        "ar_name": "الأحمدي",
        "lat": "29.089892",
        "lng": "48.068163",
        "country": 2486,
        "province": 30013
    },
    {
        "id": 781719,
        "province_name": "Mubarak Al-Kabeer",
        "province_ar_name": "مبارك الكبير",
        "price": 3.0,
        "name": "Al-Masayel",
        "ar_name": "المسايل",
        "lat": "29.245123",
        "lng": "48.087728",
        "country": 2486,
        "province": 30014
    },
    {
        "id": 781746,
        "province_name": "Kuwait City",
        "province_ar_name": "العاصمة",
        "price": 3.0,
        "name": "Al-Nahda",
        "ar_name": "النهضة",
        "lat": "29.3030527",
        "lng": "47.849667",
        "country": 2486,
        "province": 30018
    },
    {
        "id": 781634,
        "province_name": "Hawalli",
        "province_ar_name": "حولي",
        "price": 3.0,
        "name": "Al-Shuhada",
        "ar_name": "الشهداء",
        "lat": "29.271247862256523",
        "lng": "48.03062315975156",
        "country": 2486,
        "province": 30016
    },
    {
        "id": 781660,
        "province_name": "Hawalli",
        "province_ar_name": "حولي",
        "price": 3.0,
        "name": "Al-Siddeeq",
        "ar_name": "الصديق",
        "lat": "29.301614",
        "lng": "47.99115",
        "country": 2486,
        "province": 30016
    },
    {
        "id": 781687,
        "province_name": "Ahmadi",
        "province_ar_name": "الأحمدي",
        "price": 4.0,
        "name": "Ali Subah Al-Salem",
        "ar_name": "علي صباح السالم",
        "lat": "28.957238",
        "lng": "48.150839",
        "country": 2486,
        "province": 30013
    },
    {
        "id": 781604,
        "province_name": "Farwaniya",
        "province_ar_name": "الفروانيه",
        "price": 3.0,
        "name": "AlRabia",
        "ar_name": "الرابية",
        "lat": "29.29442",
        "lng": "47.933397",
        "country": 2486,
        "province": 30015
    },
    {
        "id": 781606,
        "province_name": "Farwaniya",
        "province_ar_name": "الفروانيه",
        "price": 3.0,
        "name": "AlRai",
        "ar_name": "الراي",
        "lat": "29.344088",
        "lng": "47.941702",
        "country": 2486,
        "province": 30015
    },
    {
        "id": 781607,
        "province_name": "Farwaniya",
        "province_ar_name": "الفروانيه",
        "price": 3.0,
        "name": "alrihab",
        "ar_name": "الرحاب",
        "lat": "29.283752",
        "lng": "47.944421",
        "country": 2486,
        "province": 30015
    },
    {
        "id": 781571,
        "province_name": "Farwaniya",
        "province_ar_name": "الفروانيه",
        "price": 3.0,
        "name": "Andalous",
        "ar_name": "الأندلس",
        "lat": "29.30842",
        "lng": "47.878802",
        "country": 2486,
        "province": 30015
    },
    {
        "id": 781677,
        "province_name": "Farwaniya",
        "province_ar_name": "الفروانيه",
        "price": 3.0,
        "name": "Ardhiya",
        "ar_name": "عارضية",
        "lat": "29.293581",
        "lng": "47.903988",
        "country": 2486,
        "province": 30015
    },
    {
        "id": 781678,
        "province_name": "Farwaniya",
        "province_ar_name": "الفروانيه",
        "price": 3.0,
        "name": "Ardhiya 4",
        "ar_name": "العارضية ٤",
        "lat": "29.284166",
        "lng": "47.916728",
        "country": 2486,
        "province": 30015
    },
    {
        "id": 781679,
        "province_name": "Farwaniya",
        "province_ar_name": "الفروانيه",
        "price": 3.0,
        "name": "Ardhiya 6",
        "ar_name": "العارضية ٦",
        "lat": "29.296818",
        "lng": "47.921921",
        "country": 2486,
        "province": 30015
    },
    {
        "id": 781680,
        "province_name": "Farwaniya",
        "province_ar_name": "الفروانيه",
        "price": 3.0,
        "name": "Ardhiya Herafiya",
        "ar_name": "عارضية الحرفية",
        "lat": "29.295583",
        "lng": "47.911052",
        "country": 2486,
        "province": 30015
    },
    {
        "id": 781681,
        "province_name": "Farwaniya",
        "province_ar_name": "الفروانيه",
        "price": 3.0,
        "name": "Ardiya Small Industrial",
        "ar_name": "عارضية الصناعية",
        "lat": "29.295583",
        "lng": "47.911052",
        "country": 2486,
        "province": 30015
    },
    {
        "id": 781712,
        "province_name": "Farwaniya",
        "province_ar_name": "الفروانيه",
        "price": 3.0,
        "name": "Ardiya Storage Zone",
        "ar_name": "مخازن العارضية",
        "lat": "29.295583",
        "lng": "47.911052",
        "country": 2486,
        "province": 30015
    },
    {
        "id": 781565,
        "province_name": "Farwaniya",
        "province_ar_name": "الفروانيه",
        "price": 3.0,
        "name": "Ashbeliah",
        "ar_name": "اشبيليا",
        "lat": "29.272833",
        "lng": "47.939137",
        "country": 2486,
        "province": 30015
    },
    {
        "id": 781576,
        "province_name": "Hawalli",
        "province_ar_name": "حولي",
        "price": 3.0,
        "name": "Bayan",
        "ar_name": "بيان",
        "lat": "29.29799",
        "lng": "48.051087",
        "country": 2486,
        "province": 30016
    },
    {
        "id": 781574,
        "province_name": "Kuwait City",
        "province_ar_name": "العاصمة",
        "price": 3.0,
        "name": "Bneid Al Qar",
        "ar_name": "بنيد القار",
        "lat": "29.373051",
        "lng": "48.004744",
        "country": 2486,
        "province": 30018
    },
    {
        "id": 781602,
        "province_name": "Kuwait City",
        "province_ar_name": "العاصمة",
        "price": 3.0,
        "name": "Daiya",
        "ar_name": "الدعية",
        "lat": "29.36044",
        "lng": "48.01837",
        "country": 2486,
        "province": 30018
    },
    {
        "id": 781675,
        "province_name": "Farwaniya",
        "province_ar_name": "الفروانيه",
        "price": 3.0,
        "name": "Dajeej",
        "ar_name": "ضجيج",
        "lat": "29.262001",
        "lng": "47.962213",
        "country": 2486,
        "province": 30015
    },
    {
        "id": 781601,
        "province_name": "Kuwait City",
        "province_ar_name": "العاصمة",
        "price": 3.0,
        "name": "Dasma",
        "ar_name": "الدسمة",
        "lat": "29.365172",
        "lng": "48.000796",
        "country": 2486,
        "province": 30018
    },
    {
        "id": 781600,
        "province_name": "Kuwait City",
        "province_ar_name": "العاصمة",
        "price": 3.0,
        "name": "Dasman",
        "ar_name": "دسمان",
        "lat": "29.387804",
        "lng": "47.99979",
        "country": 2486,
        "province": 30018
    },
    {
        "id": 781603,
        "province_name": "Kuwait City",
        "province_ar_name": "العاصمة",
        "price": 3.0,
        "name": "Doha",
        "ar_name": "الدوحة",
        "lat": "29.315517",
        "lng": "47.81557",
        "country": 2486,
        "province": 30018
    },
    {
        "id": 781627,
        "province_name": "Ahmadi",
        "province_ar_name": "الأحمدي",
        "price": 3.0,
        "name": "East Ahmadi",
        "ar_name": "شرق الأحمدي",
        "lat": "29.083572",
        "lng": "48.077435",
        "country": 2486,
        "province": 30013
    },
    {
        "id": 781686,
        "province_name": "Ahmadi",
        "province_ar_name": "الأحمدي",
        "price": 3.0,
        "name": "Eqaila",
        "ar_name": "العقيلة",
        "lat": "29.179831",
        "lng": "48.1069",
        "country": 2486,
        "province": 30013
    },
    {
        "id": 781696,
        "province_name": "Ahmadi",
        "province_ar_name": "الأحمدي",
        "price": 3.0,
        "name": "Fahad Al-Ahmad",
        "ar_name": "فهد الأحمد",
        "lat": "29.127708",
        "lng": "48.107648",
        "country": 2486,
        "province": 30013
    },
    {
        "id": 781691,
        "province_name": "Ahmadi",
        "province_ar_name": "الأحمدي",
        "price": 3.0,
        "name": "Fahaheel",
        "ar_name": "فحيحيل",
        "lat": "29.087308",
        "lng": "48.11828",
        "country": 2486,
        "province": 30013
    },
    {
        "id": 781697,
        "province_name": "Kuwait City",
        "province_ar_name": "العاصمة",
        "price": 3.0,
        "name": "Faiha",
        "ar_name": "الفيحاء",
        "lat": "29.340433",
        "lng": "47.978739",
        "country": 2486,
        "province": 30018
    },
    {
        "id": 781693,
        "province_name": "Farwaniya",
        "province_ar_name": "الفروانيه",
        "price": 3.0,
        "name": "Farwaniya",
        "ar_name": "الفروانية",
        "lat": "29.2781523",
        "lng": "47.9415248",
        "country": 2486,
        "province": 30015
    },
    {
        "id": 781692,
        "province_name": "Farwaniya",
        "province_ar_name": "الفروانيه",
        "price": 3.0,
        "name": "Ferdous",
        "ar_name": "الفردوس",
        "lat": "29.281619",
        "lng": "47.877777",
        "country": 2486,
        "province": 30015
    },
    {
        "id": 781694,
        "province_name": "Ahmadi",
        "province_ar_name": "الأحمدي",
        "price": 3.0,
        "name": "Fintas",
        "ar_name": "الفنطاس",
        "lat": "29.1696669999999",
        "lng": "48.117577",
        "country": 2486,
        "province": 30013
    },
    {
        "id": 781695,
        "province_name": "Mubarak Al-Kabeer",
        "province_ar_name": "مبارك الكبير",
        "price": 3.0,
        "name": "Fnaitees",
        "ar_name": "فنيطيس",
        "lat": "29.229222",
        "lng": "48.093951",
        "country": 2486,
        "province": 30014
    },
    {
        "id": 781730,
        "province_name": "Hawalli",
        "province_ar_name": "حولي",
        "price": 3.0,
        "name": "Free Trade Zone",
        "ar_name": "المنطقة الحرة",
        "lat": "29.356",
        "lng": "47.914",
        "country": 2486,
        "province": 30016
    },
    {
        "id": 781583,
        "province_name": "Kuwait City",
        "province_ar_name": "العاصمة",
        "price": 3.0,
        "name": "Ghornata",
        "ar_name": "غرناطه",
        "lat": "29.312988",
        "lng": "47.880938",
        "country": 2486,
        "province": 30018
    },
    {
        "id": 781749,
        "province_name": "Ahmadi",
        "province_ar_name": "الأحمدي",
        "price": 3.0,
        "name": "Hadiya",
        "ar_name": "هدية",
        "lat": "29.145882",
        "lng": "48.092758",
        "country": 2486,
        "province": 30013
    },
    {
        "id": 781594,
        "province_name": "Hawalli",
        "province_ar_name": "حولي",
        "price": 3.0,
        "name": "Hateen",
        "ar_name": "حطين",
        "lat": "29.286315",
        "lng": "48.025341",
        "country": 2486,
        "province": 30016
    },
    {
        "id": 781595,
        "province_name": "Hawalli",
        "province_ar_name": "حولي",
        "price": 3.0,
        "name": "Hawally",
        "ar_name": "حولي",
        "lat": "29.333298",
        "lng": "48.015893",
        "country": 2486,
        "province": 30016
    },
    {
        "id": 781724,
        "province_name": "Farwaniya",
        "province_ar_name": "الفروانيه",
        "price": 3.0,
        "name": "International Airport",
        "ar_name": "مطار الكويت الدولي",
        "lat": "29.215584",
        "lng": "47.971258",
        "country": 2486,
        "province": 30015
    },
    {
        "id": 781569,
        "province_name": "Farwaniya",
        "province_ar_name": "الفروانيه",
        "price": 3.0,
        "name": "Ishbiliya",
        "ar_name": "أشبيلية",
        "lat": "29.27256",
        "lng": "47.946995",
        "country": 2486,
        "province": 30015
    },
    {
        "id": 781578,
        "province_name": "Kuwait City",
        "province_ar_name": "العاصمة",
        "price": 3.0,
        "name": "Jaber Al Ahmad",
        "ar_name": "جابر الأحمد",
        "lat": "29.331329",
        "lng": "47.777829",
        "country": 2486,
        "province": 30018
    },
    {
        "id": 781579,
        "province_name": "Ahmadi",
        "province_ar_name": "الأحمدي",
        "price": 3.0,
        "name": "Jaber Al Ali",
        "ar_name": "جابر العلي",
        "lat": "29.177704",
        "lng": "48.087539",
        "country": 2486,
        "province": 30013
    },
    {
        "id": 781580,
        "province_name": "Hawalli",
        "province_ar_name": "حولي",
        "price": 3.0,
        "name": "Jabriya",
        "ar_name": "الجابرية",
        "lat": "29.318057",
        "lng": "48.025805",
        "country": 2486,
        "province": 30016
    },
    {
        "id": 781591,
        "province_name": "Jahra",
        "province_ar_name": "الجهراء",
        "price": 3.0,
        "name": "Jahra",
        "ar_name": "الجهراء",
        "lat": "29.336573",
        "lng": "47.675529",
        "country": 2486,
        "province": 30017
    },
    {
        "id": 781582,
        "province_name": "Kuwait City",
        "province_ar_name": "العاصمة",
        "price": 3.0,
        "name": "Jibla",
        "ar_name": "الجبلة",
        "lat": "29.376564",
        "lng": "47.970145",
        "country": 2486,
        "province": 30018
    },
    {
        "id": 781584,
        "province_name": "Farwaniya",
        "province_ar_name": "الفروانيه",
        "price": 3.0,
        "name": "Jleeb Al-Shyoukh",
        "ar_name": "جليب الشيوخ",
        "lat": "29.2552219999999",
        "lng": "47.936663",
        "country": 2486,
        "province": 30015
    },
    {
        "id": 781707,
        "province_name": "Kuwait City",
        "province_ar_name": "العاصمة",
        "price": 3.0,
        "name": "Kaifan",
        "ar_name": "كيفان",
        "lat": "29.337567",
        "lng": "47.958934",
        "country": 2486,
        "province": 30018
    },
    {
        "id": 781598,
        "province_name": "Farwaniya",
        "province_ar_name": "الفروانيه",
        "price": 3.0,
        "name": "Khaitan",
        "ar_name": "خيطان",
        "lat": "29.279973",
        "lng": "47.976263",
        "country": 2486,
        "province": 30015
    },
    {
        "id": 781596,
        "province_name": "Kuwait City",
        "province_ar_name": "العاصمة",
        "price": 3.0,
        "name": "Khaldiya",
        "ar_name": "الخالدية",
        "lat": "29.325196",
        "lng": "47.963885",
        "country": 2486,
        "province": 30018
    },
    {
        "id": 781715,
        "province_name": "Kuwait City",
        "province_ar_name": "العاصمة",
        "price": 3.0,
        "name": "Kuwait City",
        "ar_name": "مدينة الكويت",
        "lat": "29.3760641",
        "lng": "47.9643571",
        "country": 2486,
        "province": 30018
    },
    {
        "id": 781734,
        "province_name": "Ahmadi",
        "province_ar_name": "الأحمدي",
        "price": 3.0,
        "name": "Mahboula",
        "ar_name": "المهبولة",
        "lat": "29.149656",
        "lng": "48.119199",
        "country": 2486,
        "province": 30013
    },
    {
        "id": 781735,
        "province_name": "Hawalli",
        "province_ar_name": "حولي",
        "price": 3.0,
        "name": "Maidan Hawally",
        "ar_name": "ميدان حولي",
        "lat": "29.3374057",
        "lng": "48.0389048",
        "country": 2486,
        "province": 30016
    },
    {
        "id": 781733,
        "province_name": "Ahmadi",
        "province_ar_name": "الأحمدي",
        "price": 3.0,
        "name": "Mangaf",
        "ar_name": "المنقف",
        "lat": "29.107061",
        "lng": "48.123989",
        "country": 2486,
        "province": 30013
    },
    {
        "id": 781729,
        "province_name": "Kuwait City",
        "province_ar_name": "العاصمة",
        "price": 3.0,
        "name": "Mansouriya",
        "ar_name": "المنصورية",
        "lat": "29.357338",
        "lng": "47.994836",
        "country": 2486,
        "province": 30018
    },
    {
        "id": 781720,
        "province_name": "Mubarak Al-Kabeer",
        "province_ar_name": "مبارك الكبير",
        "price": 3.0,
        "name": "Messila",
        "ar_name": "المسيلة",
        "lat": "29.268889",
        "lng": "48.088881",
        "country": 2486,
        "province": 30014
    },
    {
        "id": 781751,
        "province_name": "Ahmadi",
        "province_ar_name": "الأحمدي",
        "price": 3.0,
        "name": "Middle of Ahmadi",
        "ar_name": "وسط الأحمدي",
        "lat": "29.089892",
        "lng": "48.068163",
        "country": 2486,
        "province": 30013
    },
    {
        "id": 781717,
        "province_name": "Kuwait City",
        "province_ar_name": "العاصمة",
        "price": 3.0,
        "name": "Mirgab",
        "ar_name": "المرقاب",
        "lat": "29.364855",
        "lng": "47.979006",
        "country": 2486,
        "province": 30018
    },
    {
        "id": 781721,
        "province_name": "Hawalli",
        "province_ar_name": "حولي",
        "price": 3.0,
        "name": "Mishref",
        "ar_name": "مشرف",
        "lat": "29.276103",
        "lng": "48.065471",
        "country": 2486,
        "province": 30016
    },
    {
        "id": 781708,
        "province_name": "Mubarak Al-Kabeer",
        "province_ar_name": "مبارك الكبير",
        "price": 3.0,
        "name": "Mubarak Al Kabeer",
        "ar_name": "مبارك الكبير",
        "lat": "29.194987",
        "lng": "48.08611",
        "country": 2486,
        "province": 30014
    },
    {
        "id": 781672,
        "province_name": "Hawalli",
        "province_ar_name": "حولي",
        "price": 3.0,
        "name": "Mubarak Al-Abdullah (West Mishref)",
        "ar_name": "ضاحية مبارك العبدالله (غرب مشرف)",
        "lat": "29.280339",
        "lng": "48.049612",
        "country": 2486,
        "province": 30016
    },
    {
        "id": 781709,
        "province_name": "Kuwait City",
        "province_ar_name": "العاصمة",
        "price": 3.0,
        "name": "Mubarakiya",
        "ar_name": "المباركية",
        "lat": "29.374",
        "lng": "47.975",
        "country": 2486,
        "province": 30018
    },
    {
        "id": 781710,
        "province_name": "Kuwait City",
        "province_ar_name": "العاصمة",
        "price": 3.0,
        "name": "Mubarakyia",
        "ar_name": "مباركيه",
        "lat": "29.284625",
        "lng": "48.03892",
        "country": 2486,
        "province": 30018
    },
    {
        "id": 781744,
        "province_name": "Jahra",
        "province_ar_name": "الجهراء",
        "price": 3.0,
        "name": "Naeem",
        "ar_name": "نعيم",
        "lat": "29.3333928",
        "lng": "47.6859333",
        "country": 2486,
        "province": 30017
    },
    {
        "id": 781743,
        "province_name": "Jahra",
        "province_ar_name": "الجهراء",
        "price": 3.0,
        "name": "Naseem",
        "ar_name": "النسيم",
        "lat": "29.320128",
        "lng": "47.673581",
        "country": 2486,
        "province": 30017
    },
    {
        "id": 781631,
        "province_name": "Ahmadi",
        "province_ar_name": "الأحمدي",
        "price": 3.0,
        "name": "North Ahmadi",
        "ar_name": "شمال الأحمدي",
        "lat": "29.100686",
        "lng": "48.054862",
        "country": 2486,
        "province": 30013
    },
    {
        "id": 781633,
        "province_name": "Kuwait City",
        "province_ar_name": "العاصمة",
        "price": 3.0,
        "name": "North West Al-Sulaibikhat",
        "ar_name": "شمال غرب الصليبيخات",
        "lat": "29.323737",
        "lng": "47.808882",
        "country": 2486,
        "province": 30018
    },
    {
        "id": 781745,
        "province_name": "Hawalli",
        "province_ar_name": "حولي",
        "price": 3.0,
        "name": "Nugra",
        "ar_name": "النقرة",
        "lat": "29.335",
        "lng": "48.012",
        "country": 2486,
        "province": 30016
    },
    {
        "id": 781742,
        "province_name": "Kuwait City",
        "province_ar_name": "العاصمة",
        "price": 3.0,
        "name": "Nuzha",
        "ar_name": "النزهة",
        "lat": "29.34139",
        "lng": "47.9935969999999",
        "country": 2486,
        "province": 30018
    },
    {
        "id": 781688,
        "province_name": "Farwaniya",
        "province_ar_name": "الفروانيه",
        "price": 3.0,
        "name": "Omariah",
        "ar_name": "العمرية",
        "lat": "29.30029",
        "lng": "47.958345",
        "country": 2486,
        "province": 30015
    },
    {
        "id": 781689,
        "province_name": "Jahra",
        "province_ar_name": "الجهراء",
        "price": 3.0,
        "name": "Oyoun",
        "ar_name": "العيون",
        "lat": "29.328288",
        "lng": "47.6479652",
        "country": 2486,
        "province": 30017
    },
    {
        "id": 781698,
        "province_name": "Kuwait City",
        "province_ar_name": "العاصمة",
        "price": 3.0,
        "name": "Qadsiya",
        "ar_name": "القادسية",
        "lat": "29.3499619999999",
        "lng": "48.003505",
        "country": 2486,
        "province": 30018
    },
    {
        "id": 781704,
        "province_name": "Kuwait City",
        "province_ar_name": "العاصمة",
        "price": 3.0,
        "name": "Qairawan",
        "ar_name": "القيروان",
        "lat": "29.300282",
        "lng": "47.800761",
        "country": 2486,
        "province": 30018
    },
    {
        "id": 781702,
        "province_name": "Jahra",
        "province_ar_name": "الجهراء",
        "price": 3.0,
        "name": "Qasr",
        "ar_name": "القصر",
        "lat": "29.340858",
        "lng": "47.697214",
        "country": 2486,
        "province": 30017
    },
    {
        "id": 781699,
        "province_name": "Kuwait City",
        "province_ar_name": "العاصمة",
        "price": 3.0,
        "name": "Qibla",
        "ar_name": "قبلة",
        "lat": "29.376564",
        "lng": "47.970145",
        "country": 2486,
        "province": 30018
    },
    {
        "id": 781700,
        "province_name": "Kuwait City",
        "province_ar_name": "العاصمة",
        "price": 3.0,
        "name": "Qortuba",
        "ar_name": "قرطبة",
        "lat": "29.3123479999999",
        "lng": "47.986168",
        "country": 2486,
        "province": 30018
    },
    {
        "id": 781703,
        "province_name": "Mubarak Al-Kabeer",
        "province_ar_name": "مبارك الكبير",
        "price": 3.0,
        "name": "Qosour",
        "ar_name": "القصور",
        "lat": "29.215585",
        "lng": "48.08444",
        "country": 2486,
        "province": 30014
    },
    {
        "id": 781701,
        "province_name": "Mubarak Al-Kabeer",
        "province_ar_name": "مبارك الكبير",
        "price": 3.0,
        "name": "Qurain",
        "ar_name": "القرين",
        "lat": "29.202195",
        "lng": "48.077872",
        "country": 2486,
        "province": 30014
    },
    {
        "id": 781613,
        "province_name": "Kuwait City",
        "province_ar_name": "العاصمة",
        "price": 3.0,
        "name": "Rai",
        "ar_name": "الري",
        "lat": "29.308388",
        "lng": "47.944938",
        "country": 2486,
        "province": 30018
    },
    {
        "id": 781611,
        "province_name": "Kuwait City",
        "province_ar_name": "العاصمة",
        "price": 3.0,
        "name": "Rawda",
        "ar_name": "الروضة",
        "lat": "29.329013",
        "lng": "47.998551",
        "country": 2486,
        "province": 30018
    },
    {
        "id": 781609,
        "province_name": "Farwaniya",
        "province_ar_name": "الفروانيه",
        "price": 3.0,
        "name": "Riggae",
        "ar_name": "الرقعي",
        "lat": "29.301691",
        "lng": "47.91578",
        "country": 2486,
        "province": 30015
    },
    {
        "id": 781608,
        "province_name": "Ahmadi",
        "province_ar_name": "الأحمدي",
        "price": 3.0,
        "name": "Riqqah",
        "ar_name": "الرقة",
        "lat": "29.155727",
        "lng": "48.107594",
        "country": 2486,
        "province": 30013
    },
    {
        "id": 781610,
        "province_name": "Hawalli",
        "province_ar_name": "حولي",
        "price": 3.0,
        "name": "Rumaithiya",
        "ar_name": "الرميثية",
        "lat": "29.31803",
        "lng": "48.075392",
        "country": 2486,
        "province": 30016
    },
    {
        "id": 781619,
        "province_name": "Jahra",
        "province_ar_name": "الجهراء",
        "price": 3.0,
        "name": "Saad AlAbdullah",
        "ar_name": "سعد العبدالله",
        "lat": "29.309672",
        "lng": "47.71967",
        "country": 2486,
        "province": 30017
    },
    {
        "id": 781653,
        "province_name": "Ahmadi",
        "province_ar_name": "الأحمدي",
        "price": 6.0,
        "name": "Sabah Al Ahmed Residencial",
        "ar_name": "صباح الأحمد السكنية",
        "lat": "28.799076",
        "lng": "48.04872",
        "country": 2486,
        "province": 30013
    },
    {
        "id": 781654,
        "province_name": "Mubarak Al-Kabeer",
        "province_ar_name": "مبارك الكبير",
        "price": 3.0,
        "name": "Sabah Al Salem",
        "ar_name": "صباح السالم",
        "lat": "29.262122",
        "lng": "48.082301",
        "country": 2486,
        "province": 30014
    },
    {
        "id": 781655,
        "province_name": "Farwaniya",
        "province_ar_name": "الفروانيه",
        "price": 3.0,
        "name": "Sabah Al-Nasser",
        "ar_name": "صباح الناصر",
        "lat": "29.270908",
        "lng": "47.884732",
        "country": 2486,
        "province": 30015
    },
    {
        "id": 781620,
        "province_name": "Hawalli",
        "province_ar_name": "حولي",
        "price": 3.0,
        "name": "Salam",
        "ar_name": "السلام",
        "lat": "29.3627109999999",
        "lng": "47.965239",
        "country": 2486,
        "province": 30016
    },
    {
        "id": 781644,
        "province_name": "Kuwait City",
        "province_ar_name": "العاصمة",
        "price": 3.0,
        "name": "Salhiya",
        "ar_name": "الصالحية",
        "lat": "29.363",
        "lng": "47.965",
        "country": 2486,
        "province": 30018
    },
    {
        "id": 781617,
        "province_name": "Hawalli",
        "province_ar_name": "حولي",
        "price": 3.0,
        "name": "Salmiya",
        "ar_name": "السالمية",
        "lat": "29.335294",
        "lng": "48.0715609999999",
        "country": 2486,
        "province": 30016
    },
    {
        "id": 781621,
        "province_name": "Hawalli",
        "province_ar_name": "حولي",
        "price": 3.0,
        "name": "Salwa",
        "ar_name": "سلوى",
        "lat": "29.296487",
        "lng": "48.0793789999999",
        "country": 2486,
        "province": 30016
    },
    {
        "id": 781669,
        "province_name": "Kuwait City",
        "province_ar_name": "العاصمة",
        "price": 3.0,
        "name": "Sawabir",
        "ar_name": "الصوابر",
        "lat": "29.376",
        "lng": "47.982",
        "country": 2486,
        "province": 30018
    },
    {
        "id": 781629,
        "province_name": "Hawalli",
        "province_ar_name": "حولي",
        "price": 3.0,
        "name": "Shaab",
        "ar_name": "الشعب",
        "lat": "29.349965",
        "lng": "48.028283",
        "country": 2486,
        "province": 30016
    },
    {
        "id": 781624,
        "province_name": "Kuwait City",
        "province_ar_name": "العاصمة",
        "price": 3.0,
        "name": "Shamiya",
        "ar_name": "الشامية",
        "lat": "29.350899",
        "lng": "47.9688359999999",
        "country": 2486,
        "province": 30018
    },
    {
        "id": 781626,
        "province_name": "Kuwait City",
        "province_ar_name": "العاصمة",
        "price": 3.0,
        "name": "Sharq",
        "ar_name": "شرق",
        "lat": "29.380662",
        "lng": "47.978155",
        "country": 2486,
        "province": 30018
    },
    {
        "id": 781635,
        "province_name": "Kuwait City",
        "province_ar_name": "العاصمة",
        "price": 3.0,
        "name": "Shuwaikh",
        "ar_name": "الشويخ",
        "lat": "29.354444",
        "lng": "47.9097219999999",
        "country": 2486,
        "province": 30018
    },
    {
        "id": 781636,
        "province_name": "Kuwait City",
        "province_ar_name": "العاصمة",
        "price": 3.0,
        "name": "Shuwaikh Administrative",
        "ar_name": "شويخ الادارية",
        "lat": "29.347788",
        "lng": "47.9453229999999",
        "country": 2486,
        "province": 30018
    },
    {
        "id": 781637,
        "province_name": "Kuwait City",
        "province_ar_name": "العاصمة",
        "price": 3.0,
        "name": "Shuwaikh Educational",
        "ar_name": "شويخ التعليمية",
        "lat": "29.333",
        "lng": "47.916",
        "country": 2486,
        "province": 30018
    },
    {
        "id": 781639,
        "province_name": "Kuwait City",
        "province_ar_name": "العاصمة",
        "price": 3.0,
        "name": "Shuwaikh Medical",
        "ar_name": "شويخ الصحية",
        "lat": "29.321",
        "lng": "47.898",
        "country": 2486,
        "province": 30018
    },
    {
        "id": 781638,
        "province_name": "Kuwait City",
        "province_ar_name": "العاصمة",
        "price": 3.0,
        "name": "Shuwaikh Residential",
        "ar_name": "شويخ السكنية",
        "lat": "29.357804",
        "lng": "47.960749",
        "country": 2486,
        "province": 30018
    },
    {
        "id": 781586,
        "province_name": "Ahmadi",
        "province_ar_name": "الأحمدي",
        "price": 3.0,
        "name": "South Ahmadi",
        "ar_name": "جنوب الأحمدي",
        "lat": "29.083246",
        "lng": "48.063795",
        "country": 2486,
        "province": 30013
    },
    {
        "id": 781599,
        "province_name": "Farwaniya",
        "province_ar_name": "الفروانيه",
        "price": 3.0,
        "name": "South Khaitan",
        "ar_name": "خيطان الجنوبي",
        "lat": "29.272258",
        "lng": "47.983473",
        "country": 2486,
        "province": 30015
    },
    {
        "id": 781587,
        "province_name": "Hawalli",
        "province_ar_name": "حولي",
        "price": 3.0,
        "name": "South Surra",
        "ar_name": "جنوب السرة",
        "lat": "29.276692",
        "lng": "48.010116",
        "country": 2486,
        "province": 30016
    },
    {
        "id": 781656,
        "province_name": "Ahmadi",
        "province_ar_name": "الأحمدي",
        "price": 3.0,
        "name": "Subahiya",
        "ar_name": "الصباحية",
        "lat": "29.098604",
        "lng": "48.112092",
        "country": 2486,
        "province": 30013
    },
    {
        "id": 781667,
        "province_name": "Kuwait City",
        "province_ar_name": "العاصمة",
        "price": 3.0,
        "name": "Sulaibikhat",
        "ar_name": "الصليبيخات",
        "lat": "29.315536",
        "lng": "47.859251",
        "country": 2486,
        "province": 30018
    },
    {
        "id": 781663,
        "province_name": "Jahra",
        "province_ar_name": "الجهراء",
        "price": 3.0,
        "name": "Sulaibiya",
        "ar_name": "الصليبية",
        "lat": "29.285577",
        "lng": "47.818038",
        "country": 2486,
        "province": 30017
    },
    {
        "id": 781618,
        "province_name": "Kuwait City",
        "province_ar_name": "العاصمة",
        "price": 3.0,
        "name": "Surra",
        "ar_name": "السرة",
        "lat": "29.313775",
        "lng": "48.00846",
        "country": 2486,
        "province": 30018
    },
    {
        "id": 781577,
        "province_name": "Jahra",
        "province_ar_name": "الجهراء",
        "price": 3.0,
        "name": "Taima",
        "ar_name": "تيماء",
        "lat": "29.3290438",
        "lng": "47.6618808",
        "country": 2486,
        "province": 30017
    },
    {
        "id": 781566,
        "province_name": "Ahmadi",
        "province_ar_name": "الأحمدي",
        "price": 4.0,
        "name": "Um AlHayman",
        "ar_name": "ام الهيمان",
        "lat": "28.9573194",
        "lng": "48.1368057",
        "country": 2486,
        "province": 30013
    },
    {
        "id": 781750,
        "province_name": "Jahra",
        "province_ar_name": "الجهراء",
        "price": 3.0,
        "name": "Waha",
        "ar_name": "الواحة",
        "lat": "29.3427995",
        "lng": "47.6498477",
        "country": 2486,
        "province": 30017
    },
    {
        "id": 781755,
        "province_name": "Farwaniya",
        "province_ar_name": "الفروانيه",
        "price": 3.0,
        "name": "West Abdullah Al Mubarak Al Sabah",
        "ar_name": "غرب عبدالله المبارك الصباح",
        "lat": "29.238531763309922",
        "lng": "47.84717000937304",
        "country": 2486,
        "province": 30015
    },
    {
        "id": 781563,
        "province_name": "Mubarak Al-Kabeer",
        "province_ar_name": "مبارك الكبير",
        "price": 3.0,
        "name": "West Abu Ftirah Hirafyia",
        "ar_name": "ابو فطيره الحرفيه",
        "lat": "29.198174",
        "lng": "48.050723",
        "country": 2486,
        "province": 30014
    },
    {
        "id": 781754,
        "province_name": "Kuwait City",
        "province_ar_name": "العاصمة",
        "price": 3.0,
        "name": "Yarmouk",
        "ar_name": "اليرموك",
        "lat": "29.3128219999999",
        "lng": "47.9688359999999",
        "country": 2486,
        "province": 30018
    },
    {
        "id": 781614,
        "province_name": "Hawalli",
        "province_ar_name": "حولي",
        "price": 3.0,
        "name": "Zahra",
        "ar_name": "الزهراء",
        "lat": "29.278063",
        "lng": "47.996074",
        "country": 2486,
        "province": 30016
    }
]
}
